{"coordListe":[
  {"nom":"algerie","latitude":36.75,"longitude":3.05},
  {"nom":"argentine","latitude":-34.58333333,"longitude":-58.666667},
  {"nom":"australie","latitude":-35.26666667,"longitude":149.133333},
  {"nom":"autriche","latitude":48.2,"longitude":16.366667},
  {"nom":"belgique","latitude":50.83333333,"longitude":4.333333},
  {"nom":"bolivie","latitude":-16.5,"longitude":-68.15},
  {"nom":"bresil","latitude":-15.78333333,"longitude":-47.916667},
  {"nom":"cameroun","latitude":3.866666667,"longitude":11.516667},
  {"nom":"canada","latitude":45.41666667,"longitude":-75.7},
  {"nom":"chili","latitude":-33.45,"longitude":-70.666667},
  {"nom":"chine","latitude":39.91666667,"longitude":116.383333},
  {"nom":"colombie","latitude":4.6,"longitude":-74.083333},
  {"nom":"croatie","latitude":45.8,"longitude":16},
  {"nom":"cuba","latitude":23.11666667,"longitude":-82.35},
  {"nom":"republique-tcheque","latitude":50.08333333,"longitude":14.466667},
  {"nom":"egypt","latitude":30.05,"longitude":31.25},
  {"nom":"finlande","latitude":60.16666667,"longitude":24.933333},
  {"nom":"france","latitude":48.86666667,"longitude":2.333333},
  {"nom":"allemagne","latitude":52.51666667,"longitude":13.4},
  {"nom":"italie","latitude":41.902784,"longitude":12.496366},
  {"nom":"icelande","latitude":64.15,"longitude":-21.95},
  {"nom":"inde","latitude":28.6,"longitude":77.2},
  {"nom":"irelande","latitude":53.31666667,"longitude":-6.233333},
  {"nom":"japon","latitude":35.68333333,"longitude":139.75},
  {"nom":"kenya","latitude":-1.2920659,"longitude":36.8219469},
  {"nom":"mali","latitude":12.65,"longitude":-8},
  {"nom":"mexique","latitude":19.43333333,"longitude":-99.133333},
  {"nom":"maroc","latitude":34.01666667,"longitude":-6.816667 },
  {"nom":"nouvelle-zelande","latitude":-41.3,"longitude":174.783333},
  {"nom":"norvege","latitude":59.91666667,"longitude":10.75},
  {"nom":"perou","latitude":-12.05,"longitude":-77.05},
  {"nom":"portugal","latitude":38.71666667,"longitude":-9.133333},
  {"nom":"russie","latitude":55.75,"longitude":37.6},
  {"nom":"afrique du sud","latitude":-25.7,"longitude":28.216667},
  {"nom":"coree-du-sud","latitude":37.55,"longitude":126.983333},
  {"nom":"espagne","latitude":40.4,"longitude":-3.683333},
  {"nom":"suede","latitude":59.33333333,"longitude":18.05},
  {"nom":"tunisie","latitude":36.8,"longitude":10.183333},
  {"nom":"turquie","latitude":39.93333333,"longitude":32.866667},
  {"nom":"uk","latitude":51.5,"longitude":-0.083333},
  {"nom":"usa","latitude":38.883333,"longitude":-77},
  {"nom":"uruguay","latitude":-34.85,"longitude":-56.166667},
  {"nom":"venezuela","latitude":10.48333333,"longitude":-66.866667},
  {"nom":"vietnam","latitude":21.03333333,"longitude":105.85}
]}
